[
  {
    "name": "LAKAUNI", 
    "coords": [48.8892, 2.3208],
    "distance": 47,
    "rating": 5.0,
    "reviews": 156,
    "services": ["Coupe", "Barbe", "Coloration", "Soins"],
    "phone": "01 42 26 45 23",
    "address": "12 Rue Brochant, 75017 Paris",
    "hours": "Mar-Sam: 9h-19h",
    "speciality": "Coupes afro et européennes",
    "price_range": "25-50€",
    "website": "https://lakauni-paris.com"
  },
  {
    "name": "Barbershop XVIII",
    "coords": [48.8885, 2.3195], 
    "distance": 120,
    "rating": 4.8,
    "reviews": 89,
    "services": ["Coupe", "Barbe", "Rasage"],
    "phone": "01 43 87 92 15",
    "address": "8 Avenue de Clichy, 75017 Paris",
    "hours": "Lun-Sam: 10h-20h",
    "speciality": "Barber traditionnel",
    "price_range": "20-40€",
    "website": null
  },
  {
    "name": "Salon Elite Coiffure",
    "coords": [48.8900, 2.3220],
    "distance": 180,
    "rating": 4.6,
    "reviews": 203,
    "services": ["Coupe", "Coloration", "Soins", "Brushing"],
    "phone": "01 44 69 78 32",
    "address": "25 Rue des Batignolles, 75017 Paris",
    "hours": "Mar-Sam: 9h-18h",
    "speciality": "Salon mixte premium",
    "price_range": "35-80€", 
    "website": "https://salon-elite-paris.fr"
  },
  {
    "name": "Coiff'Style",
    "coords": [48.8875, 2.3180],
    "distance": 250,
    "rating": 4.3,
    "reviews": 67,
    "services": ["Coupe", "Coloration"],
    "phone": "01 42 94 15 78",
    "address": "18 Rue Cardinet, 75017 Paris", 
    "hours": "Mar-Sam: 10h-19h",
    "speciality": "Coiffure familiale",
    "price_range": "18-35€",
    "website": null
  },
  {
    "name": "Hair Studio 17",
    "coords": [48.8895, 2.3185],
    "distance": 290,
    "rating": 4.7,
    "reviews": 124,
    "services": ["Coupe", "Barbe", "Coloration", "Extensions"],
    "phone": "01 45 22 63 89",
    "address": "32 Boulevard des Batignolles, 75017 Paris",
    "hours": "Lun-Sam: 9h-19h, Dim: 10h-17h", 
    "speciality": "Studio moderne tendance",
    "price_range": "30-70€",
    "website": "https://hairstudio17.paris"
  },
  {
    "name": "Chez Marcel",
    "coords": [48.8910, 2.3200],
    "distance": 320,
    "rating": 4.4,
    "reviews": 45,
    "services": ["Coupe", "Barbe"],
    "phone": "01 43 18 92 47",
    "address": "7 Place de Clichy, 75017 Paris",
    "hours": "Mar-Sam: 8h-18h",
    "speciality": "Barbier traditionnel français",
    "price_range": "22-38€",
    "website": null
  }
]